     2.11           OBSERVATION DATA    M (MIXED)           RINEX VERSION / TYPE
JPS2RIN v.2.0.112   JAVAD GNSS          20190621 150540 UTC PGM / RUN BY / DATE
-Unknown-           -Unknown-                               OBSERVER / AGENCY
log0621d                                                    MARKER NAME
03VF7POYOK7B7162XWTEJAVAD TRIUMPH2      3.6.9 Nov,28,2016   REC # / TYPE / VERS
  2765336.5023  1615594.9352  5497272.3936                  APPROX POSITION XYZ
-Unknown-           -Unknown-                               ANT # / TYPE
        0.0000        0.0000        0.0000                  ANTENNA: DELTA H/E/N
     1     1                                                WAVELENGTH FACT L1/2
     5    C1    P1    L1    D1    S1                        # / TYPES OF OBSERV
     1.000                                                  INTERVAL
  2019     6    21    14    31    4.0000000     GPS         TIME OF FIRST OBS
  2019     6    21    14    32    5.0000000     GPS         TIME OF LAST OBS
    18                                                      LEAP SECONDS
     7                                                      # OF SATELLITES
   G 8    62    62    62    62    62                        PRN / # OF OBS
   G10    62    62    62    62    62                        PRN / # OF OBS
   G15    62    62    62    62    62                        PRN / # OF OBS
   G16    41     0     0     0     0                        PRN / # OF OBS
   G20    62    62    62    62    62                        PRN / # OF OBS
   G21    62    62    62    62    62                        PRN / # OF OBS
   G27    62    62    62    62    62                        PRN / # OF OBS
                                                            END OF HEADER
 19  6 21 14 31  4.0000000  0  7G16G27G 8G10G15G20G21                0.000322738
  23502592.872
  20653121.622    20653121.162   108532886.095 7       291.269          42.500
  22397639.898    22397639.378   117700390.644 5      2640.606          33.250
  21280355.755    21280355.695   111829022.490 7      2014.147          42.500
  22888280.321    22888281.151   120278731.977 6      -814.804          37.750
  20483908.863    20483907.553   107643670.981 6        25.085          41.000
  22425400.892    22425400.132   117846275.404 6     -2186.771          38.250
 19  6 21 14 31  5.0000000  0  7G16G27G 8G10G15G20G21                0.000322741
  23503250.706
  20653066.266    20653065.586   108532595.151 7       290.473          43.000
  22397138.006    22397137.426   117697750.174 5      2639.945          33.500
  21279972.261    21279972.271   111827008.651 7      2013.428          42.250
  22888435.461    22888436.551   120279546.934 6      -815.414          38.000
  20483904.312    20483903.102   107643646.099 6        24.336          41.250
  22425816.272    22425815.502   117848462.133 6     -2187.054          36.750
 19  6 21 14 31  6.0000000  0  7G16G27G 8G10G15G20G21                0.000322744
  23503907.776
  20653011.218    20653010.378   108532304.954 7       289.747          42.750
  22396635.746    22396634.836   117695110.234 5      2639.537          33.500
  21279589.138    21279589.098   111824995.459 6      2012.786          41.250
  22888591.188    22888591.558   120280362.776 6      -816.352          39.000
  20483899.390    20483898.200   107643622.019 6        23.626          41.000
  22426232.309    22426231.329   117850649.283 6     -2187.449          36.750
 19  6 21 14 31  7.0000000  0  7G16G27G 8G10G15G20G21                0.000322746
  23504565.941
  20652956.335    20652955.815   108532015.539 7       289.064          42.750
  22396133.156    22396132.726   117692470.819 5      2639.141          35.000
  21279205.736    21279206.066   111822982.945 6      2012.209          41.500
  22888747.239    22888747.379   120281179.430 6      -817.057          38.750
  20483895.438    20483894.618   107643598.667 6        22.934          41.750
  22426648.703    22426648.243   117852836.798 6     -2187.634          36.000
 19  6 21 14 31  8.0000000  0  7G16G27G 8G10G15G20G21                0.000322749
  23505224.285
  20652901.128    20652900.778   108531726.707 7       288.541          42.750
  22395630.545    22395630.105   117689831.783 5      2638.862          33.750
  21278822.797    21278822.967   111820970.885 6      2011.828          41.000
  22888902.466    22888902.486   120281996.692 6      -817.429          37.750
  20483891.373    20483890.213   107643575.908 6        22.427          41.750
  22427065.553    22427064.313   117855024.538 6     -2187.755          36.500
 19  6 21 14 31  9.0000000  0  6G27G 8G10G15G20G21                   0.000322745
  20652846.230    20652846.070   108531438.467 7       287.801          42.750
  22395128.923    22395127.743   117687193.056 5      2638.437          34.000
  21278440.378    21278440.148   111818959.286 6      2011.262          40.750
  22889057.968    22889057.988   120282814.689 4      -818.334          27.000
  20483886.981    20483885.901   107643553.713 6        21.858          41.500
  22427481.368    22427480.318   117857212.391 6     -2188.149          36.750
 19  6 21 14 31 10.0000000  0  6G27G 8G10G15G20G21                   0.000322748
  20652791.704    20652791.544   108531151.175 7       287.094          42.750
  22394626.249    22394626.009   117684555.086 5      2637.912          32.250
  21278057.267    21278057.587   111816948.534 6      2010.660          41.000
  22889214.382    22889213.632   120283633.591 3      -819.110          23.750
  20483882.457    20483881.397   107643532.468 6        21.063          40.750
  22427898.697    22427896.947   117859400.967 5     -2188.545          35.750
 19  6 21 14 31 11.0000000  0  6G27G 8G10G15G20G21                   0.000322751
  20652737.378    20652737.038   108530864.001 7       286.943          43.000
  22394124.022    22394123.722   117681916.979 5      2637.823          31.500
  21277674.298    21277674.328   111814937.801 6      2010.481          40.750
  22889370.169    22889369.959   120284452.766 4      -819.436          29.250
  20483877.936    20483877.096   107643511.355 6        20.836          39.500
  22428314.089    22428313.019   117861589.194 5     -2188.271          35.750
 19  6 21 14 31 12.0000000  0  6G27G 8G10G15G20G21                   0.000322748
  20652682.675    20652682.465   108530577.405 7       286.182          43.250
  22393623.182    22393621.652   117679279.218 5      2637.179          31.750
  21277291.553    21277291.543   111812927.479 6      2009.973          40.000
  22889526.310    22889526.280   120285272.563 4      -820.163          29.250
  20483874.279    20483873.619   107643490.770 6        20.019          40.750
  22428730.624    22428729.674   117863777.610 5     -2188.829          35.000
 19  6 21 14 31 13.0000000  0  6G27G 8G10G15G20G21                   0.000322751
  20652628.482    20652628.212   108530291.553 7       285.327          43.000
  22393120.301    22393119.821   117676641.902 5      2636.896          32.500
  21276908.244    21276908.874   111810917.821 6      2009.265          39.750
  22889681.054    22889683.024   120286093.143 3      -821.054          22.000
  20483870.241    20483869.201   107643470.927 6        19.288          38.750
  22429147.767    22429146.447   117865966.384 5     -2189.176          35.750
 19  6 21 14 31 14.0000000  0  6G27G 8G10G15G20G21                   0.000322753
  20652573.965    20652573.655   108530006.323 7       284.882          43.000
  22392619.468    22392617.768   117674004.970 5      2636.790          31.500
  21276526.290    21276526.340   111808908.673 6      2008.881          39.750
  22889839.098    22889839.388   120286914.406 4      -821.826          27.500
  20483866.442    20483865.142   107643451.710 6        18.843          38.500
  22429563.873    22429563.033   117868155.388 6     -2189.217          36.000
 19  6 21 14 31 15.0000000  0  7G16G27G 8G10G15G20G21                0.000322756
  23509811.508
  20652519.915    20652519.695   108529721.886 7       284.172          43.500
  22392117.304    22392116.854   117671368.583 5      2636.111          33.000
  21276144.529    21276144.489   111806900.205 6      2008.220          40.000
  22889996.396    22889995.676   120287736.544 4      -822.530          29.000
  20483862.683    20483861.613   107643433.280 6        18.012          39.250
  22429981.169    22429979.259   117870344.804 6     -2189.539          36.000
 19  6 21 14 31 16.0000000  0  7G16G27G 8G10G15G20G21                0.000322759
  23510477.074
  20652465.671    20652465.471   108529438.162 7       283.321          42.500
  22391615.496    22391614.736   117668732.674 5      2635.605          33.750
  21275762.293    21275762.733   111804892.317 6      2007.593          40.750
  22890150.795    22890151.765   120288559.582 4      -823.309          27.000
  20483859.997    20483858.987   107643415.548 6        17.310          40.000
  22430397.278    22430396.048   117872534.510 6     -2190.161          36.250
 19  6 21 14 31 17.0000000  0  7G16G27G 8G10G15G20G21                0.000322761
  23511135.799
  20652412.571    20652411.931   108529155.099 7       283.010          43.000
  22391114.558    22391113.778   117666097.200 5      2635.604          33.750
  21275380.723    21275380.543   111802885.001 6      2007.282          41.250
  22890306.945    22890307.735   120289383.239 4      -823.853          27.250
  20483856.987    20483855.897   107643398.482 6        17.000          40.500
  22430814.250    22430813.320   117874724.547 6     -2189.992          38.750
 19  6 21 14 31 18.0000000  0  7G16G27G 8G10G15G20G21                0.000322764
  23511793.415
  20652358.807    20652358.597   108528872.930 7       281.801          43.500
  22390613.107    22390612.317   117663462.363 6      2634.509          36.000
  21274999.190    21274998.950   111800878.424 6      2006.288          41.000
  22890464.081    22890465.241   120290207.779 4      -824.562          26.000
  20483853.929    20483853.269   107643382.253 6        15.988          40.750
  22431231.028    22431229.438   117876915.005 6     -2190.780          38.250
 19  6 21 14 31 19.0000000  0  7G16G27G 8G10G15G20G21                0.000322767
  23512454.706
  20652305.147    20652304.777   108528591.239 7       281.328          43.500
  22390111.863    22390110.303   117660827.801 5      2634.299          34.000
  21274617.170    21274616.670   111798872.213 6      2005.800          40.500
  22890622.738    22890623.288   120291032.772 4      -825.596          26.500
  20483850.382    20483849.332   107643366.504 6        15.385          39.250
  22431646.894    22431645.744   117879105.666 5     -2190.816          34.250
 19  6 21 14 31 20.0000000  0  7G16G27G 8G10G15G20G21                0.000322770
  23513115.623
  20652251.646    20652251.056   108528310.465 7       280.381          43.500
  22389610.763    22389609.543   117658193.896 5      2633.597          35.000
  21274236.032    21274235.702   111796866.814 6      2005.078          40.500
  22890780.926    22890780.706   120291858.843 5      -826.509          31.500
  20483847.603    20483846.523   107643351.676 6        14.514          38.750
  22432064.139    22432062.389   117881296.794 5     -2191.290          35.250
 19  6 21 14 31 21.0000000  0  7G16G27G 8G10G15G20G21                0.000322773
  23513770.735
  20652197.920    20652197.510   108528030.372 7       279.712          42.750
  22389108.955    22389108.705   117655560.461 5      2633.031          34.500
  21273854.342    21273854.032   111794861.985 6      2004.426          41.250
  22890937.130    22890938.460   120292685.700 4      -827.359          28.750
  20483845.199    20483844.379   107643337.541 6        13.696          39.750
  22432481.165    22432479.815   117883488.213 5     -2191.679          35.750
 19  6 21 14 31 22.0000000  0  7G16G27G 8G10G15G20G21                0.000322776
  23514428.813
  20652144.431    20652144.421   108527751.052 7       278.757          42.500
  22388608.194    22388607.484   117652927.565 5      2632.405          35.750
  21273472.667    21273472.537   111792857.835 6      2003.643          40.750
  22891095.094    22891095.294   120293513.396 5      -828.426          30.250
  20483842.624    20483841.574   107643324.165 6        12.741          40.250
  22432897.709    22432896.879   117885680.040 6     -2192.211          36.000
 19  6 21 14 31 23.0000000  0  7G16G27G 8G10G15G20G21                0.000322779
  23515087.996
  20652091.548    20652091.298   108527472.664 7       278.494          42.750
  22388107.055    22388106.435   117650295.339 5      2632.620          35.250
  21273091.418    21273091.228   111790854.486 6      2003.571          41.000
  22891253.201    22891253.001   120294342.052 4      -828.511          29.750
  20483840.591    20483839.331   107643311.672 6        12.703          40.500
  22433315.116    22433314.106   117887872.404 5     -2191.989          35.250
 19  6 21 14 31 24.0000000  0  6G27G 8G10G15G20G21                   0.000322782
  20652039.402    20652038.712   108527194.454 7       277.805          43.250
  22387606.492    22387606.252   117647663.056 5      2631.931          35.750
  21272711.638    21272710.718   111788851.211 6      2002.825          41.500
  22891410.562    22891411.192   120295170.956 5      -829.308          30.000
  20483837.905    20483836.935   107643299.399 6        11.857          40.750
  22433732.355    22433731.885   117890064.580 5     -2192.418          35.750
 19  6 21 14 31 25.0000000  0  6G27G 8G10G15G20G21                   0.000322785
  20651986.389    20651985.929   108526917.271 7       276.557          43.500
  22387106.018    22387105.378   117645031.584 6      2631.026          36.750
  21272330.071    21272329.501   111786848.838 7      2001.894          42.000
  22891568.247    22891568.887   120296000.975 5      -830.633          30.250
  20483835.381    20483834.351   107643288.117 6        10.768          40.750
  22434149.963    22434148.803   117892257.373 6     -2193.191          36.000
 19  6 21 14 31 26.0000000  0  7G16G27G 8G10G15G20G21                0.000322788
  23517072.862
  20651933.668    20651933.018   108526641.124 7       275.691          43.500
  22386605.859    22386604.899   117642400.889 6      2630.392          36.250
  21271949.569    21271949.049   111784847.376 7      2001.109          42.250
  22891726.540    22891726.480   120296832.071 5      -831.541          31.000
  20483833.300    20483832.550   107643277.874 6         9.789          40.500
  22434567.256    22434566.376   117894450.832 6     -2193.721          36.250
 19  6 21 14 31 27.0000000  0  7G16G27G 8G10G15G20G21                0.000322792
  23517727.585
  20651881.735    20651880.785   108526365.855 7       274.677          43.500
  22386104.747    22386104.687   117639770.852 5      2629.476          35.250
  21271569.078    21271568.478   111782846.692 7      2000.087          42.500
  22891883.608    22891883.458   120297664.138 5      -832.758          31.000
  20483831.669    20483830.859   107643268.467 6         8.914          40.250
  22434985.152    22434984.242   117896644.738 6     -2194.283          36.750
 19  6 21 14 31 28.0000000  0  7G16G27G 8G10G15G20G21                0.000322796
  23518382.383
  20651829.271    20651828.701   108526091.522 7       273.977          43.250
  22385603.623    22385603.243   117637141.485 5      2629.125          33.750
  21271188.240    21271187.610   111780846.843 7      1999.490          42.000
  22892041.745    22892042.345   120298497.175 4      -833.550          29.000
  20483830.116    20483829.146   107643260.044 6         8.007          40.750
  22435403.767    22435402.057   117898839.241 6     -2194.699          37.000
 19  6 21 14 31 29.0000000  0  7G16G27G 8G10G15G20G21                0.000322799
  23519042.406
  20651777.128    20651776.778   108525817.918 7       273.224          43.750
  22385103.629    22385103.309   117634512.648 5      2628.632          33.500
  21270807.914    21270807.194   111778847.565 6      1999.054          41.750
  22892200.875    22892201.035   120299330.995 4      -834.345          26.500
  20483829.040    20483828.100   107643252.298 6         7.385          41.500
  22435820.644    22435819.404   117901034.047 6     -2194.939          36.750
 19  6 21 14 31 30.0000000  0  7G16G27G 8G10G15G20G21                0.000322803
  23519700.861
  20651725.123    20651724.643   108525545.138 7       272.165          43.500
  22384603.087    22384603.497   117631884.402 5      2627.751          34.000
  21270427.582    21270427.222   111776849.036 7      1997.927          42.250
  22892360.206    22892360.426   120300165.759 6      -835.481          37.000
  20483827.556    20483826.086   107643245.368 6         6.242          39.250
  22436238.147    22436237.117   117903229.295 6     -2195.711          38.250
 19  6 21 14 31 31.0000000  0  7G16G27G 8G10G15G20G21                0.000322807
  23520360.254
  20651673.172    20651672.842   108525273.194 7       271.442          43.250
  22384103.707    22384102.847   117629256.711 5      2627.245          34.500
  21270047.559    21270046.919   111774851.197 6      1997.470          41.500
  22892518.574    22892518.714   120301001.346 5      -836.072          35.750
  20483826.405    20483825.405   107643239.270 6         5.554          40.000
  22436655.254    22436654.634   117905425.026 6     -2196.104          39.500
 19  6 21 14 31 32.0000000  0  7G16G27G 8G10G15G20G21                0.000322811
  23521019.261
  20651621.878    20651621.618   108525002.147 7       270.805          43.750
  22383603.657    22383602.957   117626629.667 5      2626.873          34.000
  21269667.534    21269667.164   111772854.133 6      1996.797          41.250
  22892676.943    22892677.893   120301837.895 5      -836.948          33.750
  20483825.482    20483824.362   107643234.023 6         4.911          40.500
  22437073.734    22437072.614   117907621.199 6     -2196.291          38.250
 19  6 21 14 31 33.0000000  0  7G16G27G 8G10G15G20G21                0.000322815
  23521676.190
  20651570.208    20651570.028   108524731.761 7       269.897          44.250
  22383104.739    22383104.589   117624003.057 5      2626.349          33.500
  21269287.418    21269286.958   111770857.602 7      1996.260          42.000
  22892837.451    22892837.821   120302675.202 5      -837.772          34.750
  20483824.747    20483823.607   107643229.460 6         4.143          40.250
  22437491.777    22437491.157   117909817.700 6     -2196.686          38.500
 19  6 21 14 31 34.0000000  0  7G16G27G 8G10G15G20G21                0.000322819
  23522336.252
  20651519.067    20651518.577   108524461.990 7       269.588          43.750
  22382604.862    22382604.622   117621376.851 5      2626.088          35.250
  21268907.788    21268907.198   111768861.638 7      1995.908          42.250
  22892996.917    22892996.457   120303513.184 5      -838.234          34.500
  20483823.104    20483822.344   107643225.499 6         3.810          40.250
  22437909.400    22437908.530   117912014.428 6     -2196.669          38.250
 19  6 21 14 31 35.0000000  0  7G16G27G 8G10G15G20G21                0.000322824
  23522996.365
  20651467.829    20651467.309   108524193.034 7       268.572          43.250
  22382104.913    22382104.473   117618751.155 6      2625.563          36.000
  21268527.525    21268527.155   111766866.324 6      1995.076          41.750
  22893156.766    22893156.296   120304352.000 5      -839.322          33.750
  20483822.523    20483821.263   107643222.340 6         2.828          40.000
  22438327.361    22438326.321   117914211.570 6     -2197.255          38.000
 19  6 21 14 31 36.0000000  0  7G16G27G 8G10G15G20G21                0.000322828
  23523651.301
  20651416.868    20651416.538   108523924.399 7       268.488          43.500
  22381604.874    22381603.884   117616125.594 6      2625.591          36.000
  21268147.817    21268147.917   111764871.248 6      1994.928          41.750
  22893315.989    22893315.819   120305191.216 5      -839.392          34.500
  20483821.893    20483820.923   107643219.483 6         2.727          39.750
  22438745.650    22438745.000   117916408.665 6     -2197.066          38.750
 19  6 21 14 31 37.0000000  0  7G16G27G 8G10G15G20G21                0.000322837
  23524315.170
  20651366.032    20651365.442   108523656.206 7       267.855          43.250
  22381105.078    22381105.298   117613500.246 6      2625.150          36.250
  21267768.174    21267768.474   111762876.487 7      1994.470          42.000
  22893476.225    22893476.195   120306030.949 5      -840.111          34.250
  20483821.075    20483820.805   107643217.092 6         2.056          39.750
  22439163.878    22439162.838   117918605.780 6     -2197.279          38.000
 19  6 21 14 31 38.0000000  0  7G16G27G 8G10G15G20G21                0.000322841
  23524974.798
  20651315.031    20651314.691   108523388.943 7       267.002          43.000
  22380606.353    22380605.753   117610875.576 6      2624.520          36.750
  21267388.532    21267388.622   111760882.525 7      1993.858          42.250
  22893635.508    22893635.968   120306871.662 5      -841.065          34.250
  20483821.174    20483820.234   107643215.603 6         1.202          40.000
  22439581.936    22439581.266   117920803.458 6     -2197.723          38.250
 19  6 21 14 31 39.0000000  0  7G16G27G 8G10G15G20G21                0.000322840
  23525629.754
  20651264.153    20651263.813   108523122.441 7       266.097          43.500
  22380106.976    22380106.826   117608251.449 6      2623.968          37.000
  21267009.358    21267009.138   111758889.208 7      1993.010          42.250
  22893796.646    22893796.616   120307713.191 5      -842.081          35.250
  20483821.261    20483820.281   107643214.840 6         0.374          40.000
  22440000.530    22439999.360   117923001.519 6     -2198.247          37.750
 19  6 21 14 31 40.0000000  0  7G16G27G 8G10G15G20G21                0.000322844
  23526291.648
  20651213.764    20651213.214   108522856.668 7       265.312          43.250
  22379607.006    22379607.436   117605627.811 6      2623.199          36.750
  21266630.495    21266630.215   111756896.537 7      1992.239          42.250
  22893957.254    22893956.414   120308555.520 5      -842.859          35.250
  20483821.075    20483819.925   107643214.844 6        -0.607          39.500
  22440419.553    22440418.133   117925199.913 6     -2198.760          38.750
 19  6 21 14 31 41.0000000  0  7G16G27G 8G10G15G20G21                0.000322848
  23526950.193
  20651163.444    20651162.714   108522591.871 7       264.350          43.250
  22379107.558    22379107.178   117603004.903 6      2622.628          37.250
  21266251.434    21266251.204   111754904.702 7      1991.445          42.750
  22894117.427    22894117.317   120309398.857 5      -843.570          35.500
  20483821.279    20483819.699   107643215.770 6        -1.360          39.500
  22440837.431    22440836.481   117927398.863 6     -2199.156          37.750
 19  6 21 14 31 42.0000000  0  6G27G 8G10G15G20G21                   0.000322853
  20651113.349    20651112.619   108522328.046 7       263.278          43.250
  22378608.392    22378608.072   117600382.770 6      2621.703          37.000
  21265872.257    21265872.527   111752913.724 7      1990.470          42.250
  22894277.346    22894277.496   120310243.293 5      -845.153          34.500
  20483821.590    20483820.450   107643217.697 6        -2.539          39.250
  22441256.235    22441255.045   117929598.439 6     -2199.971          38.000
 19  6 21 14 31 43.0000000  0  6G27G 8G10G15G20G21                   0.000322858
  20651062.756    20651062.476   108522064.904 7       262.866          43.250
  22378108.977    22378109.097   117597761.091 6      2621.603          36.000
  21265493.226    21265493.196   111750923.336 7      1990.079          42.500
  22894438.421    22894438.531   120311088.407 5      -845.412          33.500
  20483822.742    20483821.402   107643220.260 6        -2.817          39.750
  22441674.571    22441673.321   117931798.305 6     -2199.941          38.250
 19  6 21 14 31 44.0000000  0  6G27G 8G10G15G20G21                   0.000322863
  20651013.287    20651012.457   108521802.399 7       262.207          43.000
  22377610.599    22377610.619   117595139.763 6      2621.240          36.000
  21265114.906    21265114.816   111748933.440 7      1989.695          42.500
  22894600.096    22894600.156   120311934.230 5      -846.135          34.500
  20483822.897    20483821.687   107643223.468 6        -3.606          40.250
  22442093.387    22442092.717   117933998.414 6     -2200.226          38.250
 19  6 21 14 31 45.0000000  0  6G27G 8G10G15G20G21                   0.000322867
  20650963.440    20650962.640   108521540.567 7       261.550          43.250
  22377112.487    22377112.527   117592518.911 6      2620.670          36.250
  21264736.793    21264736.333   111746944.139 7      1989.065          42.500
  22894761.103    22894760.633   120312780.808 5      -846.995          34.750
  20483823.437    20483822.577   107643227.335 6        -4.146          40.250
  22442512.482    22442511.192   117936198.810 6     -2200.510          38.250
 19  6 21 14 31 46.0000000  0  6G27G 8G10G15G20G21                   0.000322872
  20650913.177    20650912.767   108521279.193 7       261.133          43.000
  22376612.550    22376612.620   117589898.250 5      2620.533          35.500
  21264358.128    21264358.058   111744955.156 7      1988.811          42.750
  22894922.001    22894921.651   120313627.885 5      -847.355          35.000
  20483824.256    20483823.106   107643231.668 6        -4.649          39.750
  22442930.806    22442929.356   117938399.270 6     -2200.508          38.000
 19  6 21 14 31 47.0000000  0  6G27G 8G10G15G20G21                   0.000322876
  20650863.742    20650863.312   108521018.411 7       260.552          43.250
  22376114.367    22376114.257   117587277.943 5      2620.158          35.750
  21263979.592    21263979.272   111742966.664 7      1988.303          42.500
  22895083.622    22895083.012   120314475.659 5      -848.100          35.000
  20483825.398    20483824.058   107643236.575 6        -5.212          39.750
  22443350.075    22443348.465   117940599.950 6     -2200.805          38.250
 19  6 21 14 31 48.0000000  0  6G27G 8G10G15G20G21                   0.000322881
  20650814.162    20650813.942   108520758.695 7       259.312          43.250
  22375615.381    22375616.251   117584658.425 6      2619.302          36.250
  21263601.581    21263601.221   111740979.100 7      1987.355          42.000
  22895244.755    22895244.255   120315324.501 5      -849.221          35.500
  20483826.540    20483825.210   107643242.516 6        -6.290          39.750
  22443768.972    22443767.642   117942801.280 6     -2201.465          39.250
 19  6 21 14 31 49.0000000  0  6G27G 8G10G15G20G21                   0.000322886
  20650764.993    20650764.493   108520499.797 7       258.591          43.250
  22375118.010    22375117.400   117582039.540 6      2618.601          36.250
  21263223.129    21263222.669   111738992.267 6      1986.546          41.500
  22895406.925    22895406.435   120316174.271 5      -850.124          35.250
  20483827.973    20483827.003   107643249.272 6        -7.057          40.000
  22444187.800    22444186.660   117945003.055 6     -2201.828          39.250
 19  6 21 14 31 50.0000000  0  6G27G 8G10G15G20G21                   0.000322891
  20650715.824    20650715.554   108520241.590 7       258.132          43.750
  22374619.164    22374619.124   117579421.038 5      2618.615          35.750
  21262845.181    21262844.751   111737005.989 6      1986.210          41.500
  22895568.813    22895568.083   120317024.744 5      -850.615          35.250
  20483829.037    20483827.977   107643256.681 6        -7.481          39.750
  22444607.393    22444606.293   117947205.128 6     -2201.950          38.250
 19  6 21 14 31 51.0000000  0  6G27G 8G10G15G20G21                   0.000322896
  20650666.472    20650666.312   108519983.932 7       257.315          43.500
  22374121.257    22374120.767   117576802.904 6      2617.792          36.250
  21262467.451    21262467.181   111735020.161 6      1985.538          41.750
  22895730.473    22895729.533   120317875.871 5      -851.550          35.000
  20483830.683    20483829.903   107643264.688 6        -8.378          40.500
  22445026.808    22445025.978   117949407.368 6     -2202.451          38.750
 19  6 21 14 31 52.0000000  0  6G27G 8G10G15G20G21                   0.000322901
  20650617.684    20650617.634   108519726.800 7       257.057          43.750
  22373623.110    22373622.830   117574185.054 6      2617.908          36.000
  21262089.704    21262089.394   111733034.730 7      1985.491          42.000
  22895893.158    22895892.318   120318727.544 5      -851.708          35.000
  20483832.533    20483831.303   107643273.182 6        -8.560          40.500
  22445445.795    22445444.445   117951609.737 6     -2202.183          38.250
 19  6 21 14 31 53.0000000  0  6G27G 8G10G15G20G21                   0.000322906
  20650568.449    20650568.459   108519470.118 7       256.374          43.250
  22373124.441    22373125.091   117571567.410 6      2617.485          37.000
  21261712.133    21261711.713   111731049.649 7      1984.867          42.000
  22896055.346    22896054.436   120319579.771 5      -852.568          35.000
  20483833.966    20483833.066   107643282.110 6        -9.241          40.500
  22445864.566    22445862.996   117953812.166 6     -2202.490          38.250
 19  6 21 14 31 54.0000000  0  6G27G 8G10G15G20G21                   0.000322911
  20650520.059    20650519.739   108519214.350 7       255.539          43.000
  22372627.092    22372626.592   117568950.453 6      2616.820          37.000
  21261334.347    21261334.137   111729065.358 7      1984.160          42.250
  22896217.890    22896216.040   120320432.962 5      -853.424          34.750
  20483836.535    20483835.795   107643291.963 6       -10.045          40.750
  22446283.655    22446282.445   117956015.144 6     -2203.022          38.750
 19  6 21 14 31 55.0000000  0  7G16G27G 8G10G15G20G21                0.000322915
  23536197.403
  20650471.658    20650471.198   108518959.021 7       254.883          43.250
  22372128.845    22372128.725   117566333.704 6      2616.305          37.000
  21260956.854    21260956.434   111727081.397 7      1983.551          42.000
  22896380.159    22896378.489   120321286.647 5      -854.097          35.000
  20483838.184    20483837.274   107643302.244 6       -10.800          40.750
  22446702.690    22446701.540   117958218.138 6     -2203.288          38.750
 19  6 21 14 31 56.0000000  0  7G16G27G 8G10G15G20G21                0.000322920
  23536853.738
  20650423.223    20650422.603   108518704.251 7       254.613          43.500
  22371629.961    22371630.121   117563717.287 6      2616.356          36.000
  21260579.547    21260578.887   111725097.900 7      1983.336          42.000
  22896542.640    22896541.520   120322140.943 5      -854.546          34.750
  20483840.615    20483839.355   107643313.043 6       -10.999          40.750
  22447122.256    22447120.816   117960421.331 6     -2203.168          38.000
 19  6 21 14 31 57.0000000  0  7G16G27G 8G10G15G20G21                0.000322925
  23537511.408
  20650374.816    20650374.466   108518450.120 7       253.592          43.500
  22371132.353    22371132.363   117561101.252 5      2615.671          35.750
  21260201.854    21260201.894   111723114.878 6      1982.501          41.750
  22896705.560    22896704.230   120322995.925 5      -855.490          35.500
  20483842.702    20483841.602   107643324.491 6       -11.977          40.750
  22447541.509    22447540.549   117962624.744 6     -2203.739          38.000
 19  6 21 14 31 58.0000000  0  7G16G27G 8G10G15G20G21                0.000322929
  23538174.090
  20650326.738    20650325.988   108518196.838 7       252.836          43.750
  22370634.665    22370634.655   117558485.821 5      2615.137          35.750
  21259823.923    21259824.113   111721132.607 6      1981.916          41.750
  22896868.806    22896867.396   120323851.825 5      -856.419          35.250
  20483844.770    20483843.500   107643336.757 6       -12.780          40.750
  22447960.526    22447959.496   117964828.602 6     -2204.089          38.000
 19  6 21 14 31 59.0000000  0  7G16G27G 8G10G15G20G21                0.000322934
  23538833.166
  20650278.292    20650277.842   108517944.156 7       252.307          43.500
  22370137.228    22370137.158   117555870.770 6      2614.730          36.500
  21259447.642    21259447.532   111719150.837 6      1981.481          41.500
  22897031.734    22897029.994   120324708.390 5      -857.023          35.250
  20483846.854    20483846.164   107643349.622 6       -13.340          40.250
  22448379.369    22448378.339   117967032.718 6     -2204.377          37.500
 19  6 21 14 32  0.0000000  0  7G16G27G 8G10G15G20G21                0.000322939
  23539497.827
  20650230.559    20650229.819   108517692.163 7       251.518          43.250
  22369640.388    22369640.188   117553256.152 6      2614.250          36.250
  21259070.695    21259070.365   111717169.645 6      1980.743          41.000
  22897195.007    22897193.917   120325565.703 5      -857.862          35.750
  20483848.713    20483848.173   107643363.167 6       -14.022          40.250
  22448799.046    22448798.376   117969237.100 6     -2204.732          37.750
 19  6 21 14 32  1.0000000  0  7G16G27G 8G10G15G20G21                0.000322944
  23540159.798
  20650182.958    20650182.388   108517441.386 7       250.343          43.750
  22369142.802    22369141.902   117550642.507 5      2613.430          35.500
  21258693.897    21258693.527   111715189.548 6      1979.786          41.750
  22897357.953    22897356.573   120326424.279 6      -858.977          36.000
  20483851.720    20483850.610   107643377.909 6       -15.116          39.500
  22449218.980    22449217.790   117971442.315 6     -2205.394          38.500
 19  6 21 14 32  2.0000000  0  7G16G27G 8G10G15G20G21                0.000322949
  23540822.121
  20650135.432    20650134.802   108517191.382 7       249.614          43.750
  22368645.425    22368645.415   117548029.397 5      2612.884          35.500
  21258317.196    21258316.896   111713210.110 6      1979.104          41.500
  22897521.457    22897520.287   120327283.698 6      -859.854          36.500
  20483854.798    20483853.898   107643393.418 6       -15.806          39.750
  22449638.375    22449637.865   117973647.913 6     -2205.829          38.250
 19  6 21 14 32  3.0000000  0  7G16G27G 8G10G15G20G21                0.000322955
  23541481.068
  20650088.068    20650087.608   108516942.156 7       248.779          44.000
  22368148.420    22368147.630   117545416.874 5      2612.265          35.250
  21257940.849    21257940.489   111711231.341 6      1978.377          41.750
  22897684.916    22897683.536   120328143.947 6      -860.650          36.000
  20483857.829    20483856.999   107643409.723 6       -16.769          39.500
  22450058.549    22450057.469   117975853.901 6     -2206.180          38.250
 19  6 21 14 32  4.0000000  0  7G16G27G 8G10G15G20G21                0.000322957
  23542143.897
  20650040.985    20650040.425   108516693.781 7       247.992          44.000
  22367650.747    22367650.707   117542804.957 5      2611.549          33.250
  21257564.267    21257564.147   111709253.283 7      1977.709          42.750
  22897848.671    22897847.381   120329005.112 5      -861.586          33.500
  20483861.754    20483860.284   107643426.823 6       -17.605          39.250
  22450477.941    22450477.541   117978060.340 6     -2206.714          37.250
 19  6 21 14 32  5.0000000  0  7G16G27G 8G10G15G20G21                0.000322963
  23542808.747
  20649993.834    20649993.444   108516446.896 7       246.195          44.000
  22367154.842    22367153.592   117540194.283 5      2610.198          31.500
  21257188.259    21257187.919   111707276.610 7      1976.030          42.750
  22898013.116    22898012.476   120329867.822 5      -863.431          32.250
  20483865.147    20483864.247   107643445.453 6       -19.416          39.750
  22450898.226    22450897.696   117980267.879 6     -2207.988          36.000
